{"airports":{"411":{"id":411,"name":"Ämari Air Base","city":"Armari Air Force Base","country":"Estonia","iata":null,"icao":"EEEI","latitude":59.26029968261719,"longitude":24.208499908447266},"412":{"id":412,"name":"Kärdla Airport","city":"Kardla","country":"Estonia","iata":"KDL","icao":"EEKA","latitude":58.99079895019531,"longitude":22.830699920654297},"413":{"id":413,"name":"Kuressaare Airport","city":"Kuressaare","country":"Estonia","iata":"URE","icao":"EEKE","latitude":58.22990036010742,"longitude":22.50950050354004},"414":{"id":414,"name":"Pärnu Airport","city":"Parnu","country":"Estonia","iata":"EPU","icao":"EEPU","latitude":58.41899871826172,"longitude":24.47279930114746},"415":{"id":415,"name":"Lennart Meri Tallinn Airport","city":"Tallinn-ulemiste International","country":"Estonia","iata":"TLL","icao":"EETN","latitude":59.41329956049999,"longitude":24.832799911499997},"416":{"id":416,"name":"Tartu Airport","city":"Tartu","country":"Estonia","iata":"TAY","icao":"EETU","latitude":58.3074989319,"longitude":26.690399169900004},"3952":{"id":3952,"name":"Liepāja International Airport","city":"Liepaja","country":"Latvia","iata":"LPX","icao":"EVLA","latitude":56.51750183105469,"longitude":21.096900939941406},"3953":{"id":3953,"name":"Riga International Airport","city":"Riga","country":"Latvia","iata":"RIX","icao":"EVRA","latitude":56.92359924316406,"longitude":23.971099853515625},"3954":{"id":3954,"name":"Šiauliai International Airport","city":"Siauliai","country":"Lithuania","iata":"SQQ","icao":"EYSA","latitude":55.89390182495117,"longitude":23.395000457763672},"3955":{"id":3955,"name":"Barysiai Airport","city":"Barysiai","country":"Lithuania","iata":"HLJ","icao":"EYSB","latitude":56.07059860229492,"longitude":23.5580997467041},"3956":{"id":3956,"name":"Kaunas International Airport","city":"Kaunas","country":"Lithuania","iata":"KUN","icao":"EYKA","latitude":54.96390151977539,"longitude":24.084800720214844},"3957":{"id":3957,"name":"S. Darius and S. Girėnas Airfield","city":"Kaunas","country":"Lithuania","iata":null,"icao":"EYKS","latitude":54.879799,"longitude":23.8815},"3958":{"id":3958,"name":"Palanga International Airport","city":"Palanga","country":"Lithuania","iata":"PLQ","icao":"EYPA","latitude":55.973201751708984,"longitude":21.093900680541992},"3959":{"id":3959,"name":"Vilnius International Airport","city":"Vilnius","country":"Lithuania","iata":"VNO","icao":"EYVI","latitude":54.634102,"longitude":25.285801},"3960":{"id":3960,"name":"Panevėžys Air Base","city":"Panevezys","country":"Lithuania","iata":"PNV","icao":"EYPP","latitude":55.729400634765625,"longitude":24.460800170898438},"5602":{"id":5602,"name":"Ventspils International Airport","city":"Ventspils","country":"Latvia","iata":"VNT","icao":"EVVA","latitude":57.35779953,"longitude":21.5442008972},"7454":{"id":7454,"name":"Kihnu Airfield","city":"Kihnu","country":"Estonia","iata":null,"icao":"EEKU","latitude":58.14830017089844,"longitude":24.002500534057617},"7455":{"id":7455,"name":"Ruhnu Airfield","city":"Ruhnu","country":"Estonia","iata":null,"icao":"EERU","latitude":57.78390121459961,"longitude":23.26609992980957},"7724":{"id":7724,"name":"Tallinn Linnahall Heliport","city":"Tallinn","country":"Estonia","iata":null,"icao":"EECL","latitude":59.4486198425293,"longitude":24.75322723388672},"8948":{"id":8948,"name":"Paluknys Airport","city":"Paluknys","country":"Lithuania","iata":null,"icao":"EYVP","latitude":54.48484802246094,"longitude":24.98737335205078},"11685":{"id":11685,"name":"Rumbula Air Base","city":"Riga","country":"Latvia","iata":null,"icao":"EVRC","latitude":56.8833007812,"longitude":24.2266998291},"11799":{"id":11799,"name":"Daugavpils Intrenational Airport","city":"Daugavpils","country":"Latvia","iata":"DGP","icao":"EVDA","latitude":55.944721221900004,"longitude":26.6650009155},"11800":{"id":11800,"name":"Jēkabpils Air Base","city":"Jēkabpils","country":"Latvia","iata":null,"icao":"EVKA","latitude":56.534698,"longitude":25.8925},"11801":{"id":11801,"name":"Jūrmala Airport","city":"Tukums","country":"Latvia","iata":null,"icao":"EVTA","latitude":56.9422,"longitude":23.2239},"11802":{"id":11802,"name":"Kėdainiai Air Base","city":"Kėdainiai","country":"Lithuania","iata":null,"icao":"EYKD","latitude":55.31169891357422,"longitude":23.95639991760254},"13069":{"id":13069,"name":"Klaipėda Airport","city":"Klaipeda","country":"Lithuania","iata":"KLJ","icao":"EYKL","latitude":55.7118988037,"longitude":21.242799758900002}},"codes":{"EEEI":411,"KDL":412,"EEKA":412,"URE":413,"EEKE":413,"EPU":414,"EEPU":414,"TLL":415,"EETN":415,"TAY":416,"EETU":416,"LPX":3952,"EVLA":3952,"RIX":3953,"EVRA":3953,"SQQ":3954,"EYSA":3954,"HLJ":3955,"EYSB":3955,"KUN":3956,"EYKA":3956,"EYKS":3957,"PLQ":3958,"EYPA":3958,"VNO":3959,"EYVI":3959,"PNV":3960,"EYPP":3960,"VNT":5602,"EVVA":5602,"EEKU":7454,"EERU":7455,"EECL":7724,"EYVP":8948,"EVRC":11685,"DGP":11799,"EVDA":11799,"EVKA":11800,"EVTA":11801,"EYKD":11802,"KLJ":13069,"EYKL":13069}}